site,latitude,longitude,elevation_m,Kt_jan,Kt_feb,Kt_mar,Kt_apr,Kt_may,Kt_jun,Kt_jul,Kt_aug,Kt_sep,Kt_oct,Kt_nov,Kt_dec,wind_jan,wind_feb,wind_mar,wind_apr,wind_may,wind_jun,wind_jul,wind_aug,wind_sep,wind_oct,wind_nov,wind_dec,T_jan,T_feb,T_mar,T_apr,T_may,T_jun,T_jul,T_aug,T_sep,T_oct,T_nov,T_dec,published_GHI_kWh_m2_yr,source
Konya_TR,37.87,32.49,1016,0.50,0.55,0.58,0.60,0.65,0.72,0.74,0.72,0.68,0.60,0.52,0.48,3.6,3.7,3.9,3.8,3.5,3.6,3.9,3.8,3.5,3.4,3.3,3.4,0.0,1.5,6.0,11.0,15.5,19.5,23.0,22.5,18.0,12.0,6.0,2.0,1696,"PVGIS-SARAH2 monthly summary, JRC EU 2023"
Palencia_ES,42.01,-4.53,742,0.42,0.48,0.52,0.55,0.58,0.62,0.65,0.62,0.58,0.50,0.42,0.38,3.4,3.6,3.7,3.5,3.3,3.2,3.1,3.0,3.0,3.2,3.3,3.4,3.0,4.5,7.5,10.0,13.5,17.5,20.0,20.0,16.5,12.0,7.0,4.0,1497,"PVGIS-SARAH2 monthly summary, JRC EU 2023"
Beauce_FR,48.37,1.97,150,0.32,0.38,0.42,0.46,0.50,0.52,0.54,0.52,0.48,0.40,0.32,0.28,4.2,4.3,4.5,4.0,3.7,3.5,3.4,3.3,3.5,3.9,4.1,4.3,3.5,4.0,7.0,10.0,13.5,16.5,19.0,18.5,15.0,11.0,6.5,4.0,1136,"PVGIS-SARAH2 monthly summary, JRC EU 2023"
DesMoines_US,41.59,-93.62,291,0.44,0.48,0.50,0.52,0.54,0.56,0.58,0.56,0.54,0.50,0.42,0.40,4.8,4.9,5.0,5.1,4.6,4.0,3.7,3.5,3.8,4.4,4.7,4.7,-6.0,-3.5,4.0,11.5,17.5,22.5,24.5,23.5,19.0,12.5,4.5,-3.0,1462,"NREL NSRDB monthly summary 1998-2020 average"
Ludhiana_IN,30.90,75.85,256,0.62,0.65,0.65,0.68,0.70,0.55,0.42,0.40,0.50,0.62,0.65,0.62,2.5,2.8,3.0,3.5,3.6,3.5,3.0,2.7,2.5,2.3,2.3,2.4,12.5,15.5,21.0,27.0,32.5,33.0,30.5,29.5,28.5,25.0,18.5,13.5,1894,"NIWE / India Solar Atlas monthly summary"
SaoPaulo_BR,-23.55,-46.63,760,0.55,0.55,0.52,0.50,0.48,0.46,0.50,0.55,0.52,0.50,0.52,0.55,2.6,2.7,2.5,2.3,2.2,2.4,2.7,2.9,2.9,2.8,2.7,2.6,22.5,22.5,22.0,20.0,17.5,16.5,16.0,17.0,18.5,20.0,21.0,22.0,1709,"INMET / SWERA Brazil monthly summary"
